[
 {
   "partner_reference": 1007,
   "name": " Catalina Inn",
   "address": "2015 McFarland Blvd",
   "address2": "P.O. BOX 4345",
   "postcode": "35476-2920",
   "city": "Northport (Tuscaloosa Area)",
   "state": "ALABAMA",
   "country": "United States",
   "country_id": "US",
   "longitude": "-99.297",
   "latitude": 376.062,
   "phone": "61 3 5023 3266",
   "fax": "620/723-2245",
   "web": "http://www.yourdomain.com/hotel",
   "email": "info@yourdomain.com",
   "currency": "USD"
 },
 {
   "partner_reference": 1044,
   "name": " Dothan Inn & Suites",
   "address": "3285 Montgomery Hwy",
   "address2": "P.O. Box 1436",
   "postcode": "36303-2108",
   "city": "Dothan",
   "state": "ALABAMA",
   "country": "United States",
   "country_id": "US",
   "longitude": "1.421.403",
   "latitude": -342.039,
   "phone": "1 620 4218000",
   "fax": "1 913 727-2777",
   "web": "http://www.yourdomain.com/hotel",
   "email": "info@yourdomain.com",
   "currency": "USD"
 },
 {
   "partner_reference": 1047,
   "name": " on the Beach",
   "address": "337 E Beach Blvd",
   "address2": "P.O. Box 6534",
   "postcode": "36542-6505",
   "city": "Gulf Shores",
   "state": "ALABAMA",
   "country": "United States",
   "country_id": "US",
   "longitude": "1.421.382",
   "latitude": -342.048,
   "phone": "1 913 6516000",
   "fax": "1 785 841-1901",
   "web": "http://www.yourdomain.com/hotel",
   "email": "info@yourdomain.com",
   "currency": "USD"
 },
 {
   "partner_reference": 1051,
   "name": " Athens Inn",
   "address": "1329 US Highway 72 E",
   "address2": "P.O. BOX 4345",
   "postcode": "35611-4405",
   "city": "Athens",
   "state": "ALABAMA",
   "country": "United States",
   "country_id": "US",
   "longitude": "-99.297",
   "latitude": 376.062,
   "phone": "61 3 5023 3266",
   "fax": "620/723-2245",
   "web": "http://www.yourdomain.com/hotel",
   "email": "info@yourdomain.com",
   "currency": "USD"
 },
 {
   "partner_reference": 1063,
   "name": " Park Plaza Motor Inn",
   "address": "3801 McFarland Blvd E",
   "address2": "P.O. Box 1436",
   "postcode": "35405-2403",
   "city": "Tuscaloosa",
   "state": "ALABAMA",
   "country": "United States",
   "country_id": "US",
   "longitude": "1.421.403",
   "latitude": -342.039,
   "phone": "1 620 4218000",
   "fax": "1 913 727-2777",
   "web": "http://www.yourdomain.com/hotel",
   "email": "info@yourdomain.com",
   "currency": "USD"
 },
 {
   "partner_reference": 1064,
   "name": " Inn",
   "address": "56 Cahaba Rd",
   "address2": "P.O. Box 6534",
   "postcode": "36037-4307",
   "city": "Greenville",
   "state": "ALABAMA",
   "country": "United States",
   "country_id": "US",
   "longitude": "1.421.382",
   "latitude": -342.048,
   "phone": "1 913 6516000",
   "fax": "1 785 841-1901",
   "web": "http://www.yourdomain.com/hotel",
   "email": "info@yourdomain.com",
   "currency": "USD"
 },
 {
   "partner_reference": 1065,
   "name": " Abbeville Inn",
   "address": "1237 US Highway 431 S",
   "address2": "P.O. BOX 4345",
   "postcode": "36310-2059",
   "city": "Abbeville",
   "state": "ALABAMA",
   "country": "United States",
   "country_id": "US",
   "longitude": "-99.297",
   "latitude": 376.062,
   "phone": "61 3 5023 3266",
   "fax": "620/723-2245",
   "web": "http://www.yourdomain.com/hotel",
   "email": "info@yourdomain.com",
   "currency": "USD"
 },
 {
   "partner_reference": 1066,
   "name": " Fairwinds Inn",
   "address": "1917 Commerce Ave",
   "address2": "P.O. Box 1436",
   "postcode": "35055-6151",
   "city": "Cullman",
   "state": "ALABAMA",
   "country": "United States",
   "country_id": "US",
   "longitude": "1.421.403",
   "latitude": -342.039,
   "phone": "1 620 4218000",
   "fax": "1 913 727-2777",
   "web": "http://www.yourdomain.com/hotel",
   "email": "info@yourdomain.com",
   "currency": "USD"
 },
 {
   "partner_reference": 1067,
   "name": " Riviera Inn",
   "address": "1504 S McKenzie St",
   "address2": "P.O. Box 6534",
   "postcode": "36535-1727",
   "city": "Foley",
   "state": "ALABAMA",
   "country": "United States",
   "country_id": "US",
   "longitude": "1.421.382",
   "latitude": -342.048,
   "phone": "1 913 6516000",
   "fax": "1 785 841-1901",
   "web": "http://www.yourdomain.com/hotel",
   "email": "info@yourdomain.com",
   "currency": "USD"
 }
]